stop_id,stop_code,stop_name,stop_desc,stop_lat,stop_lon,zone_id,stop_url,location_type,parent_station,stop_timezone,wheelchair_boarding                                                                                                                                                                                                                       
17000,,Madrid-Chamartín-Clara Campoamor,,40.4711789,-3.6829524,,,,,Europe/Madrid,1                                                                                                                                                                                                                                                                            
37606,,Badajoz,,38.8906960,-6.9817530,,,,,Europe/Madrid,1                                                                                                                                                                                                                                                                                                     
37603,,Montijo,,38.9135390,-6.5985770,,,,,Europe/Madrid,2                                                                                                                                                                                                                                                                                                     
37500,,Mérida,,38.9215030,-6.3437940,,,,,Europe/Madrid,1                                                                                                                                                                                                                                                                                                      
35400,,Cáceres,,39.4611310,-6.3856790,,,,,Europe/Madrid,1                                                                                                                                                                                                                                                                                                     
30000,,Monfragüe-Plasencia,,39.9374640,-6.1009100,,,,,Europe/Madrid,2                                                                                                                                                                                                                                                                                         
35206,,Navalmoral De La Mata,,39.8949130,-5.5456070,,,,,Europe/Madrid,2                                                                                                                                                                                                                                                                                       
35203,,Oropesa De Toledo,,39.9217460,-5.1861370,,,,,Europe/Madrid,2                                                                                                                                                                                                                                                                                           
35200,,Talavera De La Reina,,39.9706740,-4.8265120,,,,,Europe/Madrid,2                                                                                                                                                                                                                                                                                        
35105,,Torrijos,,39.9790030,-4.2830370,,,,,Europe/Madrid,2                                                                                                                                                                                                                                                                                                    
18000,,Madrid - Atocha Cercanías,,40.4066191,-3.6894391,,,,,Europe/Madrid,1                                                                                                                                                                                                                                                                                   
35001,,Leganés,,40.3286430,-3.7713161,,,,,Europe/Madrid,2                                                                                                                                                                                                                                                                                                     
30002,,Plasencia,,40.0222820,-6.0993970,,,,,Europe/Madrid,2                                                                                                                                                                                                                                                                                                   
56312,,Almeria,,36.8349510,-2.4555190,,,,,Europe/Madrid,1                                                                                                                                                                                                                                                                                                     
56310,,Huercal-Viator,,36.8851550,-2.4367180,,,,,Europe/Madrid,2                                                                                                                                                                                                                                                                                              
56200,,Guadix,,37.3168730,-3.1272090,,,,,Europe/Madrid,2                                                                                                                                                                                                                                                                                                      
56100,,Moreda,,37.4312160,-3.3105160,,,,,Europe/Madrid,2                                                                                                                                                                                                                                                                                                      
56009,,Cabra del Santo Cristo Y Alicun,,37.6567129,-3.2626230,,,,,Europe/Madrid,2                                                                                                                                                                                                                                                                             
56004,,Jodar-Ubeda,,37.9133430,-3.3489200,,,,,Europe/Madrid,2                                                                                                                                                                                                                                                                                                 
50300,,Linares-Baeza,,38.0688640,-3.5893960,,,,,Europe/Madrid,1                                                                                                                                                                                                                                                                                               
50207,,Vilches,,38.2157420,-3.5175760,,,,,Europe/Madrid,2                                                                                                                                                                                                                                                                                                     
60400,,Alcazar de San Juan,,39.3956280,-3.2057440,,,,,Europe/Madrid,1                                                                                                                                                                                                                                                                                         
11200,,Miranda De Ebro,,42.6910240,-2.9403660,,,,,Europe/Madrid,1                                                                                                                                                                                                                                                                                             
13200,,Bilbao-Abando Indalecio Prieto,,43.2601304,-2.9285592,,,,,Europe/Madrid,1                                                                                                                                                                                                                                                                              
13106,,Llodio,,43.1423514,-2.9606511,,,,,Europe/Madrid,2                                                                                                                                                                                                                                                                                                      
11511,,San Sebastián/Donostia,,43.3176961,-1.9767172,,,,,Europe/Madrid,1                                                                                                                                                                                                                                                                                      
11208,,Vitoria/Gasteiz,,42.8415170,-2.6726010,,,,,Europe/Madrid,1                                                                                                                                                                                                                                                                                             
11300,,Altsasu/Alsasua-Estación,,42.8948470,-2.1812370,,,,,Europe/Madrid,2                                                                                                                                                                                                                                                                                    
11400,,Zumarraga,,43.0870824,-2.3202298,,,,,Europe/Madrid,2                                                                                                                                                                                                                                                                                                   
22308,,Vigo Guixar,,42.2392656,-8.7146089,,,,,Europe/Madrid,1                                                                                                                                                                                                                                                                                                 
94346,,Porto Campanha,,41.1489,-8.58544,,,,,Europe/Lisbon,1                                                                                                                                                                                                                                                                                                   
94021,,Nine,,41.45534,-8.54513,,,,,Europe/Lisbon,1                                                                                                                                                                                                                                                                                                            
94033,,Viana D Castelo,,41.69517,-8.83134,,,,,Europe/Lisbon,1                                                                                                                                                                                                                                                                                                 
22402,,Valenca Do Minho,,42.0247340,-8.6397450,,,,,Europe/Lisbon,2                                                                                                                                                                                                                                                                                            
71801,,Barcelona-Sants,,41.3798632,2.14101688,,,,,Europe/Madrid,1                                                                                                                                                                                                                                                                                             
04104,,Camp Tarragona,,41.1920660,1.27266600,,,,,Europe/Madrid,1                                                                                                                                                                                                                                                                                              
78400,,Lleida-Pirineus,,41.6201300,0.63365328,,,,,Europe/Madrid,1                                                                                                                                                                                                                                                                                             
04040,,Zaragoza-Delicias,,41.6586576,-0.9112693,,,,,Europe/Madrid,1                                                                                                                                                                                                                                                                                           
81202,,Tudela De Navarra,,42.0594340,-1.5979310,,,,,Europe/Madrid,1                                                                                                                                                                                                                                                                                           
81200,,Castejón De Ebro,,42.1727190,-1.6921140,,,,,Europe/Madrid,2                                                                                                                                                                                                                                                                                            
81108,,Calahorra,,42.3104580,-1.9577550,,,,,Europe/Madrid,2                                                                                                                                                                                                                                                                                                   
81100,,Logroño,,42.4574590,-2.4421930,,,,,Europe/Madrid,1                                                                                                                                                                                                                                                                                                     
81002,,Haro,,42.5836350,-2.8493960,,,,,Europe/Madrid,2                                                                                                                                                                                                                                                                                                        
65000,,Valencia-Estaciò Del Nord,,39.4669305,-0.3772239,,,,,Europe/Madrid,1                                                                                                                                                                                                                                                                                   
65402,,L'aldea-Amposta,,40.7535640,0.61430923,,,,,Europe/Madrid,1                                                                                                                                                                                                                                                                                             
65312,,Vinaròs,,40.4716820,0.45572700,,,,,Europe/Madrid,1                                                                                                                                                                                                                                                                                                     
65311,,Benicarló-Peñíscola,,40.4276390,0.41521700,,,,,Europe/Madrid,1                                                                                                                                                                                                                                                                                         
65300,,Castelló,,39.9884736,-0.0523456,,,,,Europe/Madrid,1                                                                                                                                                                                                                                                                                                    
80100,,Pamplona/Iruña,,42.8248770,-1.6614190,,,,,Europe/Madrid,1                                                                                                                                                                                                                                                                                              
80108,,Tafalla,,42.5257560,-1.6714670,,,,,Europe/Madrid,2                                                                                                                                                                                                                                                                                                     
20309,,Lugo,,43.0152220,-7.5521760,,,,,Europe/Madrid,1                                                                                                                                                                                                                                                                                                        
22100,,Ourense,,42.3503890,-7.8727770,,,,,Europe/Madrid,1                                                                                                                                                                                                                                                                                                     
20300,,Monforte de Lemos,,42.5296820,-7.5035890,,,,,Europe/Madrid,1                                                                                                                                                                                                                                                                                           
20305,,Sarria,,42.7840490,-7.4188220,,,,,Europe/Madrid,2                                                                                                                                                                                                                                                                                                      
60000,,Madrid Pta.Atocha - Almudena Grandes,,40.4064420,-3.6908860,,,,,Europe/Madrid,1                                                                                                                                                                                                                                                                        
04007,,Guadalajara - Yebes,,40.5873150,-3.1243010,,,,,Europe/Madrid,1                                                                                                                                                                                                                                                                                         
70600,,Calatayud,,41.3466920,-1.6386800,,,,,Europe/Madrid,1                                                                                                                                                                                                                                                                                                   
11014,,Burgos Rosa Manzano,,42.3711970,-3.6663080,,,,,Europe/Madrid,1                                                                                                                                                                                                                                                                                         
14100,,Palencia,,42.0157110,-4.5341350,,,,,Europe/Madrid,1                                                                                                                                                                                                                                                                                                    
15100,,Leon,,42.5960480,-5.5824280,,,,,Europe/Madrid,1                                                                                                                                                                                                                                                                                                        
20100,,Astorga,,42.4594890,-6.0472120,,,,,Europe/Madrid,2                                                                                                                                                                                                                                                                                                     
20111,,Bembibre,,42.6095580,-6.4220480,,,,,Europe/Madrid,2                                                                                                                                                                                                                                                                                                    
20200,,Ponferrada,,42.5454290,-6.6023760,,,,,Europe/Madrid,1                                                                                                                                                                                                                                                                                                  
20211,,O Barco de Valdeorras,,42.4183010,-6.9850300,,,,,Europe/Madrid,2                                                                                                                                                                                                                                                                                       
20213,,A Rua-Petin,,42.3927600,-7.1132840,,,,,Europe/Madrid,2                                                                                                                                                                                                                                                                                                 
20216,,San Clodio-Quiroga,,42.4652710,-7.2871980,,,,,Europe/Madrid,2                                                                                                                                                                                                                                                                                          
22200,,Guillarei,,42.0656630,-8.6225300,,,,,Europe/Madrid,2                                                                                                                                                                                                                                                                                                   
22300,,Redondela,,42.2860050,-8.6194020,,,,,Europe/Madrid,2                                                                                                                                                                                                                                                                                                   
22201,,O Porrinyo,,42.1641900,-8.6220200,,,,,Europe/Madrid,2                                                                                                                                                                                                                                                                                                  
31412,,A Corunya,,43.3496932,-8.4155629,,,,,Europe/Madrid,1                                                                                                                                                                                                                                                                                                   
31400,,Santiago de Compostela,,42.8708420,-8.5446970,,,,,Europe/Madrid,1                                                                                                                                                                                                                                                                                      
30100,,Salamanca,,40.9722350,-5.6489900,,,,,Europe/Madrid,1                                                                                                                                                                                                                                                                                                   
10600,,Valladolid,,41.6421670,-4.7269860,,,,,Europe/Madrid,1                                                                                                                                                                                                                                                                                                  
10500,,Medina Del Campo,,41.3176170,-4.9099230,,,,,Europe/Madrid,1                                                                                                                                                                                                                                                                                            
51405,,Cádiz,,36.5289350,-6.2879716,,,,,Europe/Madrid,1                                                                                                                                                                                                                                                                                                       
65422,,Cambrils,,41.0815642,1.04603752,,,,,Europe/Madrid,2                                                                                                                                                                                                                                                                                                    
64100,,Xàtiva,,38.9921480,-0.5245402,,,,,Europe/Madrid,1                                                                                                                                                                                                                                                                                                      
60600,,Albacete-Los Llanos,,38.9993840,-1.8484500,,,,,Europe/Madrid,1                                                                                                                                                                                                                                                                                         
60500,,Villarrobledo,,39.2608680,-2.5986210,,,,,Europe/Madrid,2                                                                                                                                                                                                                                                                                               
60406,,Socuellamos,,39.2787760,-2.7755710,,,,,Europe/Madrid,2                                                                                                                                                                                                                                                                                                 
50100,,Manzanares,,39.0058370,-3.3705070,,,,,Europe/Madrid,2                                                                                                                                                                                                                                                                                                  
50102,,Valdepenyas,,38.7628680,-3.3957200,,,,,Europe/Madrid,2                                                                                                                                                                                                                                                                                                 
50400,,Espeluy,,38.0102470,-3.8327260,,,,,Europe/Madrid,2                                                                                                                                                                                                                                                                                                     
50403,,Andujar,,38.0282250,-4.0660360,,,,,Europe/Madrid,2                                                                                                                                                                                                                                                                                                     
50500,,Cordoba,,37.8882910,-4.7894530,,,,,Europe/Madrid,1                                                                                                                                                                                                                                                                                                     
51003,,Sevilla-Santa Justa,,37.3924955,-5.9749269,,,,,Europe/Madrid,1                                                                                                                                                                                                                                                                                         
51300,,Jerez De La Frontera,,36.6800220,-6.1266032,,,,,Europe/Madrid,1                                                                                                                                                                                                                                                                                        
51400,,Puerto De Santa María,,36.6040723,-6.2179261,,,,,Europe/Madrid,1                                                                                                                                                                                                                                                                                       
51406,,San Fernando-Bahía Sur,,36.4680834,-6.2067676,,,,,Europe/Madrid,1                                                                                                                                                                                                                                                                                      
81109,,Rincón De Soto,,42.2300110,-1.8474730,,,,,Europe/Madrid,2                                                                                                                                                                                                                                                                                              
81110,,Alfaro,,42.1865250,-1.7479850,,,,,Europe/Madrid,2                                                                                                                                                                                                                                                                                                      
60911,,Alicante/Alacant,,38.3447127,-0.4955241,,,,,Europe/Madrid,1                                                                                                                                                                                                                                                                                            
04307,,Figueres Vilafant,,42.2647710,2.94354700,,,,,Europe/Madrid,1                                                                                                                                                                                                                                                                                           
79300,,Girona,,41.9793629,2.81693689,,,,,Europe/Madrid,1                                                                                                                                                                                                                                                                                                      
65200,,Sagunt/Sagunto,,39.6758025,-0.2715420,,,,,Europe/Madrid,1                                                                                                                                                                                                                                                                                              
65304,,Orpesa/Oropesa Del Mar,,40.0922580,0.13986100,,,,,Europe/Madrid,2                                                                                                                                                                                                                                                                                      
71500,,Tarragona,,41.1115636,1.25322776,,,,,Europe/Madrid,1                                                                                                                                                                                                                                                                                                   
60905,,Elda-Petrer,,38.4848790,-0.8010900,,,,,Europe/Madrid,2                                                                                                                                                                                                                                                                                                 
60902,,Villena,,38.6317380,-0.8676890,,,,,Europe/Madrid,1                                                                                                                                                                                                                                                                                                     
65318,,Benicàssim,,40.0579451,0.05776460,,,,,Europe/Madrid,2                                                                                                                                                                                                                                                                                                  
61307,,Cartagena,,37.6049670,-0.9751220,,,,,Europe/Madrid,1                                                                                                                                                                                                                                                                                                   
62103,,Elche Parque/Elx Parc,,38.2717809,-0.6952193,,,,,Europe/Madrid,2                                                                                                                                                                                                                                                                                       
62002,,Orihuela-Miguel Hernández,,38.0779321,-0.9446060,,,,,Europe/Madrid,2                                                                                                                                                                                                                                                                                   
61304,,Torre-Pacheco,,37.7469050,-0.9670780,,,,,Europe/Madrid,2                                                                                                                                                                                                                                                                                               
61303,,Balsicas-Mar Menor,,37.8188400,-0.9508910,,,,,Europe/Madrid,2                                                                                                                                                                                                                                                                                          
61200,,Murcia,,37.9748243,-1.1315080,,,,,Europe/Madrid,1                                                                                                                                                                                                                                                                                                      
06006,,Lorca Sutullena,,37.6721129,-1.6962305,,,,,Europe/Madrid,2                                                                                                                                                                                                                                                                                             
06002,,Alhama de Murcia,,37.8494024,-1.4145141,,,,,Europe/Madrid,2                                                                                                                                                                                                                                                                                            
06003,,Totana,,37.7635424,-1.4956153,,,,,Europe/Madrid,2                                                                                                                                                                                                                                                                                                      
54413,,Malaga Maria Zambrano,,36.7113388,-4.4313888,,,,,Europe/Madrid,1                                                                                                                                                                                                                                                                                       
02003,,Antequera-Santa Ana,,37.0698810,-4.7190140,,,,,Europe/Madrid,1                                                                                                                                                                                                                                                                                         
05000,,Granada,,37.1840380,-3.6091540,,,,,Europe/Madrid,1                                                                                                                                                                                                                                                                                                     
02030,,Antequera AV,,37.0334437,-4.5612901,,,,,Europe/Madrid,1                                                                                                                                                                                                                                                                                                
05012,,Loja,,37.1753720,-4.1348410,,,,,Europe/Madrid,2                                                                                                                                                                                                                                                                                                        
02002,,Puente Genil-Herrera,,37.3579000,-4.8216380,,,,,Europe/Madrid,1                                                                                                                                                                                                                                                                                        
37704,,Villanueva de Cordoba-Los Pedroches,,38.2554049,-4.5709520,,,,,Europe/Madrid,2                                                                                                                                                                                                                                                                         
37300,,Puertollano,,38.6912800,-4.1116550,,,,,Europe/Madrid,1                                                                                                                                                                                                                                                                                                 
37200,,Ciudad Real,,38.9853000,-3.9136330,,,,,Europe/Madrid,1                                                                                                                                                                                                                                                                                                 
43019,,Huelva,,37.2530790,-6.9509710,,,,,Europe/Madrid,1                                                                                                                                                                                                                                                                                                      
43011,,La Palma del Condado,,37.3906650,-6.5544440,,,,,Europe/Madrid,1                                                                                                                                                                                                                                                                                        
74200,,Huesca,,42.1335940,-0.4097450,,,,,Europe/Madrid,1                                                                                                                                                                                                                                                                                                      
78200,,Tardienta,,41.9757160,-0.5382230,,,,,Europe/Madrid,2                                                                                                                                                                                                                                                                                                   
03410,,ELX AV,,38.2455100,-0.7667500,,,,,Europe/Madrid,2                                                                                                                                                                                                                                                                                                      
03309,,Villena Av,,38.5853020,-0.8732950,,,,,Europe/Madrid,2                                                                                                                                                                                                                                                                                                  
03208,,Cuenca Fernando Zobel,,40.0351920,-2.1444100,,,,,Europe/Madrid,1                                                                                                                                                                                                                                                                                       
03216,,Valencia Joaquin Sorolla,,39.4590510,-0.3829230,,,,,Europe/Madrid,1                                                                                                                                                                                                                                                                                    
11500,,Tolosa,,43.1354472,-2.0790886,,,,,Europe/Madrid,2                                                                                                                                                                                                                                                                                                      
15410,,Gijón/Xixón,,43.5377329,-5.6758089,,,,,Europe/Madrid,1                                                                                                                                                                                                                                                                                                 
15211,,Oviedo/Uviéu,,43.3663577,-5.8548380,,,,,Europe/Madrid,1                                                                                                                                                                                                                                                                                                
15122,,Pola De Lena/La Pola,,43.1587200,-5.8310263,,,,,Europe/Madrid,2                                                                                                                                                                                                                                                                                        
14223,,Santander,,43.4583981,-3.8109529,,,,,Europe/Madrid,1                                                                                                                                                                                                                                                                                                   
08004,,Segovia Guiomar,,40.9105770,-4.0945640,,,,,Europe/Madrid,1                                                                                                                                                                                                                                                                                             
14114,,Aguilar de Campoo,,42.7853620,-4.2338990,,,,,Europe/Madrid,2                                                                                                                                                                                                                                                                                           
14213,,Torrelavega/Tanos,,43.3276776,-4.0426871,,,,,Europe/Madrid,2                                                                                                                                                                                                                                                                                           
14202,,Reinosa,,42.9944991,-4.1409454,,,,,Europe/Madrid,2                                                                                                                                                                                                                                                                                                     
15203,,Mieres Puente,,43.2500266,-5.7822622,,,,,Europe/Madrid,1                                                                                                                                                                                                                                                                                               
11600,,Irun,,43.3395365,-1.8012519,,,,,Europe/Madrid,1                                                                                                                                                                                                                                                                                                        
20005,,Veguellina,,42.4335000,-5.8875600,,,,,Europe/Madrid,2                                                                                                                                                                                                                                                                                                  
20104,,Branyuelas,,42.6326310,-6.2010020,,,,,Europe/Madrid,2                                                                                                                                                                                                                                                                                                  
16403,,Avilés,,43.5613390,-5.9228329,,,,,Europe/Madrid,2                                                                                                                                                                                                                                                                                                      
08240,,Medina del Campo Alta Velocidad,,41.3174590,-4.9100710,,,,,Europe/Madrid,2                                                                                                                                                                                                                                                                             
30200,,Zamora,,41.5158920,-5.7396750,,,,,Europe/Madrid,1                                                                                                                                                                                                                                                                                                      
08247,,Sanabria Alta Velocidad,,42.0450532,-6.5631319,,,,,Europe/Madrid,2                                                                                                                                                                                                                                                                                     
08251,,A GUDIÑA-PORTA DE GALICIA,,42.0606439,-7.1325320,,,,,Europe/Madrid,2                                                                                                                                                                                                                                                                                   
20113,,San Miguel de Las Duenyas,,42.5863920,-6.5237760,,,,,Europe/Madrid,2                                                                                                                                                                                                                                                                                   
20109,,Torre del Bierzo,,42.5955780,-6.3290830,,,,,Europe/Madrid,2                                                                                                                                                                                                                                                                                            
20102,,Vega-Magaz,,42.5537600,-6.0682670,,,,,Europe/Madrid,2                                                                                                                                                                                                                                                                                                  
08223,,Vigo Urzaiz,,42.2341890,-8.7137280,,,,,Europe/Madrid,1                                                                                                                                                                                                                                                                                                 
23004,,Pontevedra,,42.4219690,-8.6355460,,,,,Europe/Madrid,1                                                                                                                                                                                                                                                                                                  
23008,,Vilagarcia de Arousa,,42.6021890,-8.7625230,,,,,Europe/Madrid,1                                                                                                                                                                                                                                                                                        
03213,,Requena Utiel,,39.5198340,-1.1276010,,,,,Europe/Madrid,1                                                                                                                                                                                                                                                                                               
92102,,Toledo,,39.8622720,-4.0112440,,,,,Europe/Madrid,1                                                                                                                                                                                                                                                                                                      
03412,,CALLOSA DE SEGURA - COX,,38.1227708,-0.8745727,,,,,Europe/Madrid,2                                                                                                                                                                                                                                                                                     
62001,,Beniel,,38.0448608,-0.9994759,,,,,Europe/Madrid,2                                                                                                                                                                                                                                                                                                      
31416,,Cerceda-Meirama,,43.2078791,-8.4467723,,,,,Europe/Madrid,2                                                                                                                                                                                                                                                                                             
23021,,Padron-Barbanza,,42.7389670,-8.6526140,,,,,Europe/Madrid,2                                                                                                                                                                                                                                                                                             
08224,,Redondela Av,,42.2860050,-8.6194020,,,,,Europe/Madrid,2                                                                                                                                                                                                                                                                                                
23002,,Arcade,,42.3405490,-8.6111780,,,,,Europe/Madrid,2                                                                                                                                                                                                                                                                                                      
99159,,Santiago-Turistico,,42.8708420,-8.5446970,,,,,Europe/Madrid,2                                                                                                                                                                                                                                                                                          
99161,,Pontevedra-Turistico,,42.4219690,-8.6355460,,,,,Europe/Madrid,1                                                                                                                                                                                                                                                                                        
99143,,A Coruna-Turistico,,43.3527610,-8.4097550,,,,,Europe/Madrid,2                                                                                                                                                                                                                                                                                          
55020,,Algeciras,,36.1268310,-5.4511080,,,,,Europe/Madrid,1                                                                                                                                                                                                                                                                                                   
55007,,Ronda,,36.7484010,-5.1619700,,,,,Europe/Madrid,1                                                                                                                                                                                                                                                                                                       
55018,,San Roque-La Linea,,36.2144820,-5.4323990,,,,,Europe/Madrid,2                                                                                                                                                                                                                                                                                          
99117,,Ourense Turistico,,42.3503890,-7.8727770,,,,,Europe/Madrid,2                                                                                                                                                                                                                                                                                           
87089,,Marseille St Charles,,43.30349,5.382236,,,,,Europe/Madrid,2                                                                                                                                                                                                                                                                                            
87912,,Aix en Provence,,43.455268,5.31723,,,,,Europe/Madrid,2                                                                                                                                                                                                                                                                                                 
87814,,Avignon,,43.921938,4.785813,,,,,Europe/Madrid,2                                                                                                                                                                                                                                                                                                        
87302,,NIMES,,43.832291,4.365845,,,,,Europe/Madrid,2                                                                                                                                                                                                                                                                                                          
87173,,Montpellier,,43.6048520,3.88049100,,,,,Europe/Madrid,2                                                                                                                                                                                                                                                                                                 
87088,,Narbonne,,43.1902530,3.00571600,,,,,Europe/Madrid,2                                                                                                                                                                                                                                                                                                    
87374,,Perpignan,,42.6964210,2.88038100,,,,,Europe/Madrid,2                                                                                                                                                                                                                                                                                                   
87101,,NIMES PONT DU GARD,,43.8168789,4.3617439,,,,,Europe/Madrid,2                                                                                                                                                                                                                                                                                           
87100,,MONTPELLIER SUD DE FRANCE,,43.5951821,3.9216961,,,,,Europe/Madrid,2                                                                                                                                                                                                                                                                                    
87303,,Lyon Part Dieu,,45.760281,4.859801,,,,,Europe/Madrid,2                                                                                                                                                                                                                                                                                                 
87810,,Valence,,44.991545,4.978703,,,,,Europe/Madrid,2                                                                                                                                                                                                                                                                                                        
61015,,Archena-Fortuna,,38.1313200,-1.2360370,,,,,Europe/Madrid,2                                                                                                                                                                                                                                                                                             
61012,,Cieza,,38.2466090,-1.4217020,,,,,Europe/Madrid,2                                                                                                                                                                                                                                                                                                       
61005,,Hellin,,38.5087760,-1.6884370,,,,,Europe/Madrid,2                                                                                                                                                                                                                                                                                                      
10610,,Valladolid-Universidad,,41.6602570,-4.7040370,,,,,Europe/Madrid,2                                                                                                                                                                                                                                                                                      
10602,,Cabezon del Pisuerga,,41.7372760,-4.6512940,,,,,Europe/Madrid,2                                                                                                                                                                                                                                                                                        
10603,,Corcos-Aguilarejo,,41.7664460,-4.6234850,,,,,Europe/Madrid,2                                                                                                                                                                                                                                                                                           
10604,,Cubillas de Santa Marta,,41.8088610,-4.5797540,,,,,Europe/Madrid,2                                                                                                                                                                                                                                                                                     
10605,,Duenyas,,41.8704800,-4.5412160,,,,,Europe/Madrid,2                                                                                                                                                                                                                                                                                                     
11000,,Venta De Baños,,41.9173600,-4.4958440,,,,,Europe/Madrid,2                                                                                                                                                                                                                                                                                              
15001,,Grijota,,42.0492250,-4.5839540,,,,,Europe/Madrid,2                                                                                                                                                                                                                                                                                                     
15003,,Becerril,,42.1047060,-4.6471200,,,,,Europe/Madrid,2                                                                                                                                                                                                                                                                                                    
15004,,Paredes de Nava,,42.1506940,-4.6975990,,,,,Europe/Madrid,2                                                                                                                                                                                                                                                                                             
15007,,Villada,,42.2452380,-4.9705890,,,,,Europe/Madrid,2                                                                                                                                                                                                                                                                                                     
15008,,Grajal,,42.3232460,-5.0133810,,,,,Europe/Madrid,2                                                                                                                                                                                                                                                                                                      
15009,,Sahagun,,42.3693290,-5.0226670,,,,,Europe/Madrid,1                                                                                                                                                                                                                                                                                                     
15012,,El Burgo Ranero,,42.4257530,-5.2085920,,,,,Europe/Madrid,2                                                                                                                                                                                                                                                                                             
15015,,Palanquinos,,42.4607160,-5.4975840,,,,,Europe/Madrid,2                                                                                                                                                                                                                                                                                                 
15106,,La Robla,,42.8044540,-5.6262550,,,,,Europe/Madrid,2                                                                                                                                                                                                                                                                                                    
15108,,La Pola de Gordon,,42.8540990,-5.6745240,,,,,Europe/Madrid,2                                                                                                                                                                                                                                                                                           
15109,,Santa Lucia,,42.8751500,-5.6396130,,,,,Europe/Madrid,2                                                                                                                                                                                                                                                                                                 
15112,,Villamanin,,42.9367100,-5.6576370,,,,,Europe/Madrid,2                                                                                                                                                                                                                                                                                                  
15113,,Busdongo,,42.9844950,-5.7053910,,,,,Europe/Madrid,2                                                                                                                                                                                                                                                                                                    
15116,,Linares-Congostinas,,43.1017430,-5.7721620,,,,,Europe/Madrid,2                                                                                                                                                                                                                                                                                         
15401,,La Calzada,,43.5353848,-5.6971507,,,,,Europe/Madrid,2                                                                                                                                                                                                                                                                                                  
15218,,Llamaquique,,43.3588282,-5.8573201,,,,,Europe/Madrid,1                                                                                                                                                                                                                                                                                                 
15200,,Uxo,,43.2046962,-5.7926422,,,,,Europe/Madrid,1                                                                                                                                                                                                                                                                                                         
15120,,Campumanes,,43.1100681,-5.8164466,,,,,Europe/Madrid,2                                                                                                                                                                                                                                                                                                  
15118,,Fierros,,43.0715986,-5.7694650,,,,,Europe/Madrid,2                                                                                                                                                                                                                                                                                                     
23000,,Redondela-Picota,,42.2868660,-8.6071180,,,,,Europe/Madrid,2                                                                                                                                                                                                                                                                                            
23009,,Catoira,,42.6721660,-8.7252910,,,,,Europe/Madrid,2                                                                                                                                                                                                                                                                                                     
23010,,Pontecesures,,42.7229850,-8.6521300,,,,,Europe/Madrid,2                                                                                                                                                                                                                                                                                                
23011,,Padron,,42.7389670,-8.6526140,,,,,Europe/Madrid,2                                                                                                                                                                                                                                                                                                      
31415,,Ordes,,43.0375440,-8.4484470,,,,,Europe/Madrid,2                                                                                                                                                                                                                                                                                                       
31411,,Uxes,,43.2973740,-8.4444040,,,,,Europe/Madrid,2                                                                                                                                                                                                                                                                                                        
23005,,Portela,,42.5178010,-8.6546090,,,,,Europe/Madrid,2                                                                                                                                                                                                                                                                                                     
23013,,Osebe,,42.8252980,-8.6158400,,,,,Europe/Madrid,2                                                                                                                                                                                                                                                                                                       
23018,,Pontevedra-Universidad,,42.4387499,-8.6304812,,,,,Europe/Madrid,2                                                                                                                                                                                                                                                                                      
23001,,Cesantes,,42.3102580,-8.6165410,,,,,Europe/Madrid,2                                                                                                                                                                                                                                                                                                    
20002,,Quintana-Raneros,,42.5500850,-5.6377890,,,,,Europe/Madrid,2                                                                                                                                                                                                                                                                                            
20008,,Villavante,,42.4645800,-5.8389140,,,,,Europe/Madrid,2                                                                                                                                                                                                                                                                                                  
20006,,Barrientos,,42.4143010,-5.9639880,,,,,Europe/Madrid,2                                                                                                                                                                                                                                                                                                  
20007,,Nistal,,42.4244620,-6.0080300,,,,,Europe/Madrid,2                                                                                                                                                                                                                                                                                                      
20103,,Porqueros,,42.5989350,-6.1082380,,,,,Europe/Madrid,2                                                                                                                                                                                                                                                                                                   
20106,,La Granja de San Vicente,,42.6148740,-6.2824950,,,,,Europe/Madrid,2                                                                                                                                                                                                                                                                                    
22006,,Barra de Minyo,,42.4010950,-7.8025670,,,,,Europe/Madrid,2                                                                                                                                                                                                                                                                                              
22005,,Os Peares,,42.4514390,-7.7355230,,,,,Europe/Madrid,2                                                                                                                                                                                                                                                                                                   
22004,,San Pedro Do Sil,,42.4413530,-7.7041200,,,,,Europe/Madrid,2                                                                                                                                                                                                                                                                                            
22003,,San Estevo Do Sil,,42.4269210,-7.6616760,,,,,Europe/Madrid,2                                                                                                                                                                                                                                                                                           
22002,,Areas,,42.4577990,-7.6287900,,,,,Europe/Madrid,2                                                                                                                                                                                                                                                                                                       
22001,,Canabal,,42.4828820,-7.5877330,,,,,Europe/Madrid,2                                                                                                                                                                                                                                                                                                     
20214,,Montefurado,,42.3940200,-7.1984000,,,,,Europe/Madrid,2                                                                                                                                                                                                                                                                                                 
20212,,Vilamartin de Valdeorras,,42.4118290,-7.0611850,,,,,Europe/Madrid,2                                                                                                                                                                                                                                                                                    
20210,,Sobradelo,,42.4148590,-6.9119510,,,,,Europe/Madrid,2                                                                                                                                                                                                                                                                                                   
20208,,Querenyo,,42.4207040,-6.8294860,,,,,Europe/Madrid,2                                                                                                                                                                                                                                                                                                    
20207,,Covas,,42.4753260,-6.8308780,,,,,Europe/Madrid,2                                                                                                                                                                                                                                                                                                       
20204,,Toral de Los Vados,,42.5410520,-6.7767030,,,,,Europe/Madrid,2                                                                                                                                                                                                                                                                                          
20203,,Villadepalos,,42.5368600,-6.7511090,,,,,Europe/Madrid,2                                                                                                                                                                                                                                                                                                
22110,,Caldelas,,42.0558130,-8.5663430,,,,,Europe/Madrid,2                                                                                                                                                                                                                                                                                                    
22109,,Salvaterra de Minyo,,42.0816400,-8.4951410,,,,,Europe/Madrid,2                                                                                                                                                                                                                                                                                         
22108,,As Neves,,42.0754620,-8.4200740,,,,,Europe/Madrid,2                                                                                                                                                                                                                                                                                                    
22107,,Sela,,42.0920920,-8.3559980,,,,,Europe/Madrid,2                                                                                                                                                                                                                                                                                                        
22106,,Arbo,,42.1070580,-8.3002470,,,,,Europe/Madrid,2                                                                                                                                                                                                                                                                                                        
22105,,Pousa-Crecente,,42.1367050,-8.2348890,,,,,Europe/Madrid,2                                                                                                                                                                                                                                                                                              
22104,,Frieira,,42.1548820,-8.2010360,,,,,Europe/Madrid,2                                                                                                                                                                                                                                                                                                     
22103,,Filgueira,,42.2199170,-8.1847880,,,,,Europe/Madrid,2                                                                                                                                                                                                                                                                                                   
22102,,Ribadavia,,42.2931000,-8.1392610,,,,,Europe/Madrid,2                                                                                                                                                                                                                                                                                                   
20410,,Elvinya-Universidade,,43.3352220,-8.4130610,,,,,Europe/Madrid,2                                                                                                                                                                                                                                                                                        
20404,,O Burgo Santiago,,43.3178410,-8.3687500,,,,,Europe/Madrid,2                                                                                                                                                                                                                                                                                            
20403,,Cambre,,43.2905020,-8.3521040,,,,,Europe/Madrid,2                                                                                                                                                                                                                                                                                                      
20402,,Cecebre,,43.2879130,-8.3077670,,,,,Europe/Madrid,2                                                                                                                                                                                                                                                                                                     
20400,,Betanzos-Infesta,,43.2706980,-8.2258470,,,,,Europe/Madrid,2                                                                                                                                                                                                                                                                                            
20320,,Oza Dos Rios,,43.2187700,-8.1871110,,,,,Europe/Madrid,2                                                                                                                                                                                                                                                                                                
20319,,Cesuras,,43.1730730,-8.2005000,,,,,Europe/Madrid,2                                                                                                                                                                                                                                                                                                     
20318,,Pinyoi,,43.1279220,-8.1634980,,,,,Europe/Madrid,2                                                                                                                                                                                                                                                                                                      
20317,,Curtis,,43.1272320,-8.1431550,,,,,Europe/Madrid,2                                                                                                                                                                                                                                                                                                      
20316,,Teixeiro,,43.1414110,-8.0376900,,,,,Europe/Madrid,2                                                                                                                                                                                                                                                                                                    
20314,,Guitiriz,,43.1790580,-7.8950390,,,,,Europe/Madrid,2                                                                                                                                                                                                                                                                                                    
20313,,Parga,,43.1636440,-7.8373830,,,,,Europe/Madrid,2                                                                                                                                                                                                                                                                                                       
20312,,Baamonde,,43.1734050,-7.7561280,,,,,Europe/Madrid,2                                                                                                                                                                                                                                                                                                    
20310,,Rabade,,43.1213780,-7.6248350,,,,,Europe/Madrid,2                                                                                                                                                                                                                                                                                                      
20306,,Pedrelo-Celtigos,,42.8329340,-7.3933290,,,,,Europe/Madrid,2                                                                                                                                                                                                                                                                                            
21010,,Ferrol,,43.4880467,-8.2310664,,,,,Europe/Madrid,1                                                                                                                                                                                                                                                                                                      
21008,,Perlio,,43.4723090,-8.1748370,,,,,Europe/Madrid,2                                                                                                                                                                                                                                                                                                      
21005,,Cabanas-Areal,,43.4155850,-8.1688280,,,,,Europe/Madrid,2                                                                                                                                                                                                                                                                                               
21004,,Pontedeume,,43.4117970,-8.1804160,,,,,Europe/Madrid,2                                                                                                                                                                                                                                                                                                  
21003,,Perbes,,43.3781970,-8.2011060,,,,,Europe/Madrid,2                                                                                                                                                                                                                                                                                                      
21002,,Minyo,,43.3494310,-8.2073130,,,,,Europe/Madrid,2                                                                                                                                                                                                                                                                                                       
21001,,Betanzos-Cidade,,43.2841370,-8.2158740,,,,,Europe/Madrid,2                                                                                                                                                                                                                                                                                             
21007,,Barallobre,,43.4628990,-8.1885860,,,,,Europe/Madrid,2                                                                                                                                                                                                                                                                                                  
21009,,Neda,,43.4953510,-8.1609670,,,,,Europe/Madrid,2                                                                                                                                                                                                                                                                                                        
31308,,Lalin,,42.6325300,-8.1427150,,,,,Europe/Madrid,2                                                                                                                                                                                                                                                                                                       
31306,,O Irixo,,42.5197190,-8.1051740,,,,,Europe/Madrid,2                                                                                                                                                                                                                                                                                                     
31304,,O Carballinyo,,42.4313400,-8.0688740,,,,,Europe/Madrid,2                                                                                                                                                                                                                                                                                               
31303,,A Friela-Maside,,42.4114010,-8.0289670,,,,,Europe/Madrid,2                                                                                                                                                                                                                                                                                             
51401,,Puerto Real,,36.5309155,-6.1853143,,,,,Europe/Madrid,1                                                                                                                                                                                                                                                                                                 
51205,,Jerez Aeropuerto,,36.7515886,-6.0659384,,,,,Europe/Madrid,2                                                                                                                                                                                                                                                                                            
51203,,Lebrija,,36.9116378,-6.0948487,,,,,Europe/Madrid,1                                                                                                                                                                                                                                                                                                     
51200,,Utrera,,37.1848178,-5.7907537,,,,,Europe/Madrid,1                                                                                                                                                                                                                                                                                                      
51103,,Dos Hermanas,,37.2872259,-5.9235322,,,,,Europe/Madrid,2                                                                                                                                                                                                                                                                                                
51100,,Sevilla-San Bernardo,,37.3777778,-5.9796142,,,,,Europe/Madrid,1                                                                                                                                                                                                                                                                                        
51110,,Sevilla-Virgen Del Rocío,,37.3628091,-5.9760105,,,,,Europe/Madrid,1                                                                                                                                                                                                                                                                                    
03100,,Jaen,,37.7798270,-3.7907980,,,,,Europe/Madrid,1                                                                                                                                                                                                                                                                                                        
50407,,Villa del Rio,,37.9813310,-4.2837880,,,,,Europe/Madrid,2                                                                                                                                                                                                                                                                                               
50504,,Posadas,,37.8039860,-5.1063250,,,,,Europe/Madrid,2                                                                                                                                                                                                                                                                                                     
50506,,Palma del Rio,,37.7180810,-5.2927600,,,,,Europe/Madrid,2                                                                                                                                                                                                                                                                                               
50507,,Penyaflor,,37.7075020,-5.3416090,,,,,Europe/Madrid,2                                                                                                                                                                                                                                                                                                   
50600,,Lora Del Río,,37.6613212,-5.5295514,,,,,Europe/Madrid,2                                                                                                                                                                                                                                                                                                
